name,geomaster_name,geomaster_id,admin_level,date,individuals,centroid_lon,centroid_lat,lat_max,lon_max,lat_min,lon_min,source,month,year,population_groups_concat,population_group_id,individuals_type,demography_type,households,published,numChildren,color
1,Poland,10781,Country,2022-05-06,3167805,19.4013,52.1224,55.469505777204,26.4013,48.02154911827,12.4013,NA,5,2022,Ukrainian Asylum-seekers/applications cumulative,5460,2,1,0,TRUE,0,#3c8dbc
2,Russian Federation,10791,Country,2022-05-06,739418,38.1556078125,51.488850139616,59.067055102908,36.958297741264,54.998769388622,31.669526312692,NA,5,2022,Ukrainian Asylum-seekers/applications cumulative,5460,2,1,0,FALSE,0,#3c8dbc
3,Hungary,10783,Country,2022-05-06,557001,19.4131,47.1672,54.1672,26.58888125,43.760060981758,12.4131,NA,5,2022,Ukrainian Asylum-seekers/applications cumulative,5460,2,1,0,TRUE,0,#3c8dbc
5,Republic of Moldova,10784,Country,2022-05-06,453848,28.4646,47.1976,49.019638429728,31.685303125,45.044273452589,25.068115625,NA,5,2022,Ukrainian Asylum-seekers/applications cumulative,5460,2,1,0,TRUE,0,#3c8dbc
7,Belarus,10786,Country,2022-05-06,26278,28.0463,53.5384,57.838933546403,33.727940625,48.496893952144,21.0463,NA,5,2022,Ukrainian Asylum-seekers/applications cumulative,5460,2,1,0,FALSE,0,#3c8dbc
